City,Lat,Long,Temp,Max Temp,Min Temp,Humidity,Clouds,Wind,Country,Datetime
vila do maio,15.1333,-23.2167,26.44,26.44,26.44,82,100,5.7,CV,1663406526
punta arenas,-53.15,-70.9167,2.06,2.06,1.73,87,40,3.09,CL,1663406526
tuatapere,-46.1333,167.6833,5.05,5.05,5.05,87,98,2.23,NZ,1663406526
rikitea,-23.1203,-134.9692,22.24,22.24,22.24,78,0,7.05,PF,1663406526
gomel,52.4345,30.9754,15.0,16.58,13.8,66,0,5.0,BY,1663406527
rio grande,-32.035,-52.0986,12.75,12.75,12.75,83,2,5.57,BR,1663406527
iqaluit,63.7506,-68.5145,1.5,1.85,1.5,87,75,2.57,CA,1663406527
zhigansk,66.7697,123.3711,3.1,3.1,3.1,68,99,6.2,RU,1663406527
lamar,33.6668,-95.5836,21.53,22.58,20.95,79,0,3.6,US,1663406529
ushuaia,-54.8,-68.3,2.81,2.81,2.81,75,75,8.75,AR,1663406529
new norfolk,-42.7826,147.0587,9.83,12.18,9.39,73,100,0.45,AU,1663406529
hobart,-42.8794,147.3294,11.89,12.37,9.59,71,75,5.14,AU,1663406308
tasiilaq,65.6145,-37.6368,4.09,4.09,4.09,97,100,5.96,GL,1663406529
rivera,-30.9053,-55.5508,9.77,9.77,9.77,95,84,3.89,UY,1663406529
tiksi,71.6872,128.8694,2.01,2.01,2.01,98,100,0.71,RU,1663406529
pekan,3.4836,103.3996,32.06,32.06,32.06,70,87,2.88,MY,1663406530
lebu,-37.6167,-73.65,6.6,6.6,6.6,89,100,8.58,CL,1663406530
mataura,-46.1927,168.8643,8.04,8.04,8.04,91,100,1.48,NZ,1663406530
mar del plata,-38.0023,-57.5575,13.41,13.94,12.01,90,0,11.18,AR,1663406530
vestmanna,62.1564,-7.1664,8.51,8.51,8.51,87,100,0.0,FO,1663406530
nanortalik,60.1432,-45.2371,8.02,8.02,8.02,80,100,3.66,GL,1663406530
bethel,41.3712,-73.414,13.12,15.93,10.72,85,100,0.0,US,1663406530
waingapu,-9.6567,120.2641,29.52,29.52,29.52,54,40,5.0,ID,1663406531
ozimek,50.6794,18.2137,11.31,13.53,11.11,71,100,4.82,PL,1663406531
grootfontein,-19.5667,18.1167,27.76,27.76,27.76,14,0,1.03,NA,1663406531
los llanos de aridane,28.6585,-17.9182,22.29,23.86,22.29,84,20,2.57,ES,1663406531
tommot,58.9564,126.2925,9.03,9.03,9.03,65,100,0.17,RU,1663406531
barra do corda,-5.5,-45.25,21.62,21.62,21.62,95,48,1.39,BR,1663406531
georgetown,5.4112,100.3354,30.94,31.64,29.97,74,40,3.6,MY,1663406331
fortuna,40.5982,-124.1573,12.64,13.29,11.72,87,65,0.84,US,1663406531
dudinka,69.4058,86.1778,4.79,4.79,4.79,53,100,4.52,RU,1663406532
garowe,8.4054,48.4845,33.61,33.61,33.61,32,10,9.72,SO,1663406532
qinggang,46.6833,126.0833,18.67,18.67,18.67,73,96,4.19,CN,1663406532
port alfred,-33.5906,26.891,18.99,18.99,18.99,75,100,1.79,ZA,1663406532
hilo,19.7297,-155.09,22.07,28.49,21.85,87,0,2.24,US,1663406532
atuona,-9.8,-139.0333,24.82,24.82,24.82,73,15,8.97,PF,1663406532
dhidhdhoo,6.8833,73.1,27.55,27.55,27.55,73,39,4.38,MV,1663406532
vaini,-21.2,-175.2,24.49,24.49,24.49,81,10,4.8,TO,1663406533
busselton,-33.65,115.3333,15.77,15.77,15.77,65,35,4.39,AU,1663405964
tucuman,-26.8241,-65.2226,8.0,8.0,8.0,71,3,2.06,AR,1663406533
avarua,-21.2078,-159.775,23.03,23.03,23.03,78,40,3.09,CK,1663406533
kollo,13.3043,2.339,27.24,27.24,27.24,65,92,5.07,NE,1663406533
barrow,71.2906,-156.7887,1.01,1.01,1.01,86,100,12.86,US,1663406533
cabo san lucas,22.8909,-109.9124,28.29,28.62,25.1,75,96,3.24,MX,1663406533
thompson,55.7435,-97.8558,7.09,7.09,7.09,93,20,2.06,CA,1663406533
qaanaaq,77.484,-69.3632,-4.07,-4.07,-4.07,71,27,3.38,GL,1663406533
kenai,60.5544,-151.2583,9.45,10.05,9.03,96,20,4.12,US,1663406534
ancud,-41.8697,-73.8203,2.9,2.9,2.9,78,0,2.7,CL,1663406534
lata,40.1629,-8.3327,21.06,21.07,20.6,55,98,1.35,PT,1663406535
san patricio,28.017,-97.5169,26.35,30.47,23.4,78,0,2.95,US,1663406535
albany,42.6001,-73.9662,10.3,12.02,7.41,85,82,1.25,US,1663406535
chuy,-33.6971,-53.4616,11.76,11.76,11.76,94,94,2.73,UY,1663406535
kieta,-6.2167,155.6333,26.64,26.64,26.64,82,82,2.71,PG,1663406535
mirskoy,45.5439,40.3998,25.77,25.77,25.77,54,100,3.63,RU,1663406535
cape town,-33.9258,18.4232,15.84,17.28,14.95,71,100,3.09,ZA,1663406243
chokurdakh,70.6333,147.9167,2.58,2.58,2.58,64,100,2.5,RU,1663406535
kalach-na-donu,48.691,43.5264,23.45,23.45,23.45,61,100,3.9,RU,1663406536
sao jose da coroa grande,-8.8978,-35.1478,22.33,22.33,22.33,79,17,1.87,BR,1663406536
puerto ayora,-0.7393,-90.3518,18.64,18.64,18.64,89,2,3.29,EC,1663406536
ankang,32.68,109.0172,20.16,20.16,20.16,94,100,1.09,CN,1663406536
butaritari,3.0707,172.7902,27.82,27.82,27.82,70,12,5.94,KI,1663406536
tarancon,40.0085,-3.0073,21.31,21.31,21.31,48,17,1.97,ES,1663406536
bredasdorp,-34.5322,20.0403,15.08,15.08,15.08,67,100,2.17,ZA,1663406537
saint-philippe,-21.3585,55.7679,24.77,25.06,24.77,78,18,7.76,RE,1663406537
dunedin,-45.8742,170.5036,8.22,8.22,8.22,70,100,0.89,NZ,1663406427
quatre cocos,-20.2078,57.7625,24.49,24.49,24.06,72,26,7.62,MU,1663406537
tashtyp,52.7939,89.8983,12.5,12.5,12.5,47,94,3.17,RU,1663406537
kruisfontein,-34.0033,24.7314,18.9,18.9,18.9,56,76,4.82,ZA,1663406537
cascais,38.6979,-9.4215,22.26,25.9,20.53,91,20,6.26,PT,1663406537
kibala,9.1104,18.3463,25.97,25.97,25.97,78,40,4.12,TD,1663406538
naze,28.3667,129.4833,25.51,25.51,25.51,91,100,15.33,JP,1663406487
sarakhs,36.5449,61.1577,31.94,31.94,31.94,19,0,5.14,IR,1663406538
ponta do sol,32.6667,-17.1,26.35,26.35,26.35,82,25,4.37,PT,1663406538
upernavik,72.7868,-56.1549,0.58,0.58,0.58,74,11,5.92,GL,1663406538
kaitangata,-46.2817,169.8464,6.17,6.17,6.17,85,100,1.5,NZ,1663406539
kloulklubed,7.0419,134.2556,28.28,28.28,28.28,57,62,3.32,PW,1663406539
broken hill,-31.95,141.4333,13.35,13.35,13.35,48,70,7.1,AU,1663406495
goksun,38.021,36.4973,29.38,29.38,29.38,18,0,1.32,TR,1663406539
lahij,13.1667,44.5833,34.36,34.36,34.36,36,70,2.3,YE,1663406540
leshukonskoye,64.8989,45.7622,13.33,13.33,13.33,81,100,4.19,RU,1663406540
mumbwa,-14.9783,27.0619,28.52,28.52,28.52,24,26,2.97,ZM,1663406540
jumla,29.2747,82.1838,19.98,19.98,19.98,79,93,1.96,NP,1663406541
morros,-9.4467,-46.3003,26.0,26.0,26.0,37,84,2.34,BR,1663406541
olafsvik,64.8945,-23.7142,8.89,8.89,8.89,80,100,2.6,IS,1663406541
constantine,36.365,6.6147,21.67,21.67,21.67,83,75,3.6,DZ,1663406541
araouane,18.9048,-3.5265,34.31,34.31,34.31,19,29,3.14,ML,1663406542
sitka,57.0531,-135.33,8.94,8.94,8.94,81,0,2.57,US,1663406542
khatanga,71.9667,102.5,1.83,1.83,1.83,66,100,6.94,RU,1663406542
hermanus,-34.4187,19.2345,14.33,14.33,14.33,70,100,3.21,ZA,1663406542
havelock,34.8791,-76.9013,15.67,19.41,12.81,91,0,2.06,US,1663406542
grindavik,63.8424,-22.4338,9.26,9.26,6.97,87,75,1.03,IS,1663406542
pangnirtung,66.1451,-65.7125,4.23,4.23,4.23,74,100,2.32,CA,1663406542
jamestown,42.097,-79.2353,12.92,13.8,11.77,77,100,2.57,US,1663406543
kudahuvadhoo,2.6708,72.8944,27.76,27.76,27.76,65,79,2.41,MV,1663406543
darnah,32.767,22.6367,25.77,25.77,25.77,57,0,3.04,LY,1663406543
yulara,-25.2406,130.9889,22.31,22.31,22.31,15,0,3.01,AU,1663406543
clyde river,70.4692,-68.5914,1.13,1.13,1.13,100,100,7.72,CA,1663406544
narsaq,60.9167,-46.05,14.12,14.12,14.12,61,100,8.02,GL,1663406544
yellowknife,62.456,-114.3525,8.29,8.29,8.09,93,20,3.09,CA,1663406544
torbay,47.6666,-52.7314,12.53,12.99,11.82,87,75,9.26,CA,1663406544
port hardy,50.6996,-127.4199,8.1,10.0,8.1,100,75,1.03,CA,1663406544
mufumbwe,-13.6833,24.8,30.81,30.81,30.81,20,82,2.83,ZM,1663406544
kodiak,57.79,-152.4072,11.73,11.73,11.73,87,100,2.06,US,1663406270
bouna,9.2667,-3.0,22.47,22.47,22.47,91,100,2.68,CI,1663406545
mandera,3.9366,41.867,33.27,33.27,33.27,30,47,6.97,KE,1663406545
port elizabeth,-33.918,25.5701,19.62,20.16,19.62,73,20,6.17,ZA,1663406444
karla,59.3723,24.9275,13.86,15.32,12.84,77,75,2.06,EE,1663406545
wahiawa,21.5028,-158.0236,21.72,24.18,20.86,85,75,0.0,US,1663406545
bathsheba,13.2167,-59.5167,28.34,28.34,28.34,89,20,7.2,BB,1663406545
keningau,5.3378,116.1602,27.45,27.45,27.45,80,100,1.31,MY,1663406382
marsa matruh,31.3525,27.2453,26.33,26.33,26.33,44,0,0.88,EG,1663406546
brae,60.3964,-1.353,9.74,9.74,9.74,72,100,8.0,GB,1663406547
vung tau,10.346,107.0843,29.52,29.52,29.52,74,93,5.56,VN,1663406331
arlit,18.7369,7.3853,33.35,33.35,33.35,34,99,3.52,NE,1663406548
bluff,-46.6,168.3333,8.22,8.22,8.22,76,99,2.84,NZ,1663406548
abalak,58.1286,68.5944,16.29,16.29,16.29,37,94,5.99,RU,1663406548
nikolskoye,59.7035,30.7861,12.83,12.94,11.55,90,100,3.37,RU,1663406548
namibe,-15.1961,12.1522,22.16,22.16,22.16,72,5,3.78,AO,1663406548
victoria,22.2855,114.1577,32.45,33.99,31.69,68,69,4.92,HK,1663406510
santiago de cuba,20.0247,-75.8219,26.06,26.06,26.06,73,20,1.54,CU,1663406549
carnarvon,-24.8667,113.6333,21.81,21.81,21.81,55,1,7.14,AU,1663406549
kirakira,-10.4544,161.9205,26.67,26.67,26.67,83,34,4.09,SB,1663406549
esperance,-33.8667,121.9,16.14,16.14,16.14,76,4,6.27,AU,1663406549
andenes,69.3143,16.1194,10.99,11.63,10.99,82,20,9.26,NO,1663406549
bengkulu,-3.8004,102.2655,27.08,27.08,27.08,81,80,1.38,ID,1663406239
sao joao da barra,-21.6403,-41.0511,17.4,17.4,17.4,87,100,5.05,BR,1663406549
tuscaloosa,33.2098,-87.5692,19.22,20.12,18.09,92,75,0.0,US,1663406549
baruun-urt,46.6806,113.2792,14.14,14.14,14.14,35,66,8.84,MN,1663406550
sur,22.5667,59.5289,34.39,34.39,34.39,47,18,4.27,OM,1663406550
tiznit,29.5833,-9.5,19.48,19.48,19.48,77,72,2.48,MA,1663406550
talcahuano,-36.7167,-73.1167,8.82,8.82,8.82,93,100,4.63,CL,1663406550
ramgarh,23.6333,85.5167,32.03,32.03,32.03,67,100,1.24,IN,1663406550
narasannapeta,18.4167,84.05,31.19,31.19,31.19,67,99,3.78,IN,1663406550
winder,33.9926,-83.7202,16.32,18.56,14.56,95,75,0.0,US,1663406550
nuevo progreso,23.1667,-97.95,22.94,23.59,22.72,80,99,1.45,MX,1663406551
cherskiy,68.75,161.3,0.69,0.69,0.69,79,100,7.05,RU,1663406551
sheridan,44.8333,-106.9173,9.83,11.21,9.45,96,0,2.57,US,1663406551
hobyo,5.3505,48.5268,28.71,28.71,28.71,64,56,10.65,SO,1663406551
umea,63.8284,20.2597,11.96,11.96,10.51,94,100,5.14,SE,1663406551
russell,32.3502,-85.1999,20.02,20.78,18.99,82,13,2.13,US,1663406551
basco,20.4487,121.9702,28.64,28.64,28.64,72,99,7.04,PH,1663406551
luderitz,-26.6481,15.1594,20.45,20.45,20.45,55,17,7.24,NA,1663406411
airai,-8.9266,125.4092,21.19,21.19,21.19,49,86,1.13,TL,1663406552
sangar,63.9242,127.4739,5.23,5.23,5.23,90,92,0.22,RU,1663406552
kapiri mposhi,-13.9652,28.6809,28.14,28.14,28.14,23,9,2.96,ZM,1663406552
itacoatiara,-3.1431,-58.4442,24.14,24.14,24.14,67,32,0.44,BR,1663406552
arraial do cabo,-22.9661,-42.0278,18.92,18.92,15.98,68,75,2.57,BR,1663406552
caravelas,-17.7125,-39.2481,20.52,20.52,20.52,91,51,1.68,BR,1663406552
port lincoln,-34.7333,135.8667,12.63,12.63,12.63,72,94,8.86,AU,1663406552
aras,42.5617,-2.356,17.23,17.23,14.24,48,0,3.09,ES,1663406553
piacabucu,-10.4056,-36.4344,22.43,22.43,22.43,82,12,2.8,BR,1663406553
kwinana,-32.25,115.7667,16.7,18.08,16.16,75,98,1.79,AU,1663406303
fushun,41.8558,123.9233,22.84,22.84,22.84,83,95,2.02,CN,1663406554
hamilton,39.1834,-84.5333,16.88,18.76,14.16,93,0,2.57,US,1663406554
bedesa,8.9,40.7833,23.43,23.43,23.43,56,41,3.68,ET,1663406554
pahrump,36.2083,-115.9839,21.64,21.64,19.03,27,0,2.84,US,1663406554
camacha,33.0833,-16.3333,22.68,22.68,22.68,83,75,6.17,PT,1663406554
san jose,37.3394,-121.895,13.08,14.91,10.8,81,0,0.45,US,1663406497
hasaki,35.7333,140.8333,26.22,27.38,26.22,78,100,4.74,JP,1663406354
lago da pedra,-4.3333,-45.1667,21.01,21.01,21.01,98,20,1.61,BR,1663406554
cidreira,-30.1811,-50.2056,15.4,15.4,15.4,83,0,5.94,BR,1663406555
severo-kurilsk,50.6789,156.125,9.97,9.97,9.97,84,12,6.89,RU,1663406555
sola,-13.8833,167.55,25.37,25.37,25.37,94,40,0.0,VU,1663406555
furano,43.2818,142.4743,20.72,20.72,20.72,96,100,1.85,JP,1663406555
shenkursk,62.1091,42.896,10.31,10.31,10.31,94,100,5.05,RU,1663406556
leningradskiy,69.3833,178.4167,1.8,1.8,1.8,97,100,5.76,RU,1663406556
mayo,38.8876,-76.5119,15.54,17.97,12.86,95,0,0.0,US,1663406556
kresttsy,58.2452,32.5165,8.74,8.74,8.74,94,98,4.46,RU,1663406556
hovd,48.0056,91.6419,11.62,11.62,11.62,41,35,4.84,MN,1663406556
port macquarie,-31.4333,152.9167,16.78,16.78,16.78,61,6,2.79,AU,1663406556
martapura,-3.4167,114.85,33.05,33.05,33.05,55,20,1.54,ID,1663406556
encinitas,33.037,-117.292,17.64,19.86,15.89,90,75,2.06,US,1663406557
acapulco,16.8634,-99.8901,23.9,23.9,23.9,94,100,1.54,MX,1663406557
ambilobe,-13.2,49.05,34.26,34.26,34.26,24,0,3.58,MG,1663406557
fuerte olimpo,-21.0415,-57.8738,18.94,18.94,18.94,61,0,2.32,PY,1663406557
alofi,-19.0595,-169.9187,20.94,20.94,20.94,94,1,0.51,NU,1663406557
kavieng,-2.5744,150.7967,28.18,28.18,28.18,71,60,5.28,PG,1663406557
ugento,39.9263,18.1574,26.04,26.04,22.72,64,96,4.02,IT,1663406557
nome,64.5011,-165.4064,10.04,10.04,8.95,87,100,15.43,US,1663406557
skjervoy,70.0311,20.9714,9.0,9.0,9.0,85,100,5.2,NO,1663406557
norman wells,65.282,-126.8329,7.02,7.02,7.02,87,75,2.06,CA,1663406558
faya,18.3851,42.4509,25.29,27.06,25.29,37,56,3.29,SA,1663406558
charlestown,-32.95,151.6667,17.91,18.74,16.71,53,2,1.79,AU,1663406402
provideniya,64.3833,-173.3,6.91,6.91,6.91,94,100,7.07,RU,1663406559
longyearbyen,78.2186,15.6401,-0.09,-0.09,-0.09,69,75,6.17,SJ,1663406344
ust-tsilma,65.441,52.1498,16.04,16.04,16.04,52,49,4.15,RU,1663406559
faanui,-16.4833,-151.75,25.68,25.68,25.68,71,28,10.63,PF,1663406559
castro,-24.7911,-50.0119,8.96,8.96,8.96,80,99,4.87,BR,1663406559
ruston,32.5232,-92.6379,17.9,17.9,16.99,94,0,0.0,US,1663406560
dikson,73.5069,80.5464,2.72,2.72,2.72,72,22,4.37,RU,1663406560
acarau,-2.8856,-40.12,25.29,25.29,25.29,77,84,6.35,BR,1663406560
cayenne,4.9333,-52.3333,23.02,23.02,23.02,94,20,0.0,GF,1663406560
anadyr,64.75,177.4833,5.56,6.28,5.56,86,75,8.0,RU,1663406561
taltal,-25.4,-70.4833,11.29,11.29,11.29,84,0,0.74,CL,1663406561
gisborne,-38.6533,178.0042,9.69,9.69,9.69,88,23,2.21,NZ,1663406561
upington,-28.4478,21.2561,28.21,28.21,28.21,24,40,2.06,ZA,1663406548
atherton,53.5237,-2.4935,12.7,14.58,10.08,65,29,1.79,GB,1663406561
lincoln,40.8,-96.667,20.02,21.42,17.86,87,8,1.34,US,1663406353
kampot,10.6167,104.1833,29.03,29.03,29.03,66,77,5.79,KH,1663406561
hervey bay,-25.2986,152.8535,21.68,21.68,21.68,90,80,4.47,AU,1663406562
guerrero negro,27.9769,-114.0611,19.89,19.89,19.89,83,0,6.44,MX,1663406562
portland,45.5234,-122.6762,12.91,14.32,10.9,81,75,4.12,US,1663406562
nagram,26.6167,81.1333,29.03,29.03,29.03,69,94,2.46,IN,1663406562
verkhniy uslon,55.7701,48.9823,14.01,14.12,14.01,88,100,4.32,RU,1663406562
north bend,43.4065,-124.2243,10.23,12.14,8.37,96,0,2.06,US,1663406562
hithadhoo,-0.6,73.0833,27.82,27.82,27.82,71,17,3.11,MV,1663406563
egvekinot,66.3167,-179.1667,2.99,2.99,2.99,92,100,9.36,RU,1663406339
nantucket,41.2835,-70.0995,14.72,15.64,10.06,67,40,2.57,US,1663406563
windhoek,-22.5594,17.0832,26.93,27.28,26.27,12,0,4.63,NA,1663406302
bambanglipuro,-7.95,110.2833,26.83,26.83,26.83,74,100,5.98,ID,1663406563
omboue,-1.5746,9.2618,25.94,25.94,25.94,74,98,2.98,GA,1663406563
kyzyl-suu,42.3414,78.0056,19.91,19.91,19.91,30,1,3.33,KG,1663406563
jalu,29.0331,21.5482,31.72,31.72,31.72,22,0,2.62,LY,1663406563
baghdogra,26.7,88.3167,30.13,30.13,30.13,73,89,1.18,IN,1663406564
broome,42.2506,-75.833,13.83,15.2,12.48,83,100,1.54,US,1663406564
paita,-5.0892,-81.1144,17.27,17.27,17.27,88,8,3.77,PE,1663406564
ginda,30.6945,78.4932,20.33,20.33,20.33,79,92,1.77,IN,1663406564
cacahoatan,14.9833,-92.1667,21.11,21.11,21.11,91,100,1.86,MX,1663406564
saint george,37.1041,-113.5841,20.91,20.91,20.33,47,0,1.54,US,1663406564
quelimane,-17.8786,36.8883,29.97,29.97,29.97,54,20,3.6,MZ,1663406564
constitucion,-35.3333,-72.4167,11.56,11.56,11.56,94,100,2.57,CL,1663406564
fairbanks,64.8378,-147.7164,9.65,11.01,8.32,78,100,2.57,US,1663406565
mahebourg,-20.4081,57.7,24.16,24.58,24.16,69,75,7.72,MU,1663406565
snyder,32.7179,-100.9176,21.22,23.51,21.19,68,0,2.06,US,1663406565
marawi,7.9986,124.2928,24.13,24.13,24.13,85,100,0.78,PH,1663406565
nueva loja,0.0847,-76.8828,19.0,19.0,19.0,99,93,0.72,EC,1663406565
colac,-38.3333,143.5833,9.35,9.54,8.38,91,91,8.11,AU,1663406566
mishan,45.55,131.8833,13.94,13.94,13.94,97,100,0.82,CN,1663406566
kapaa,22.0752,-159.319,22.56,25.99,22.18,80,0,4.12,US,1663406566
kjollefjord,70.9457,27.3465,7.9,8.03,7.9,93,100,8.75,NO,1663406566
nuuk,64.1835,-51.7216,8.34,8.34,8.34,93,100,1.54,GL,1663406566
goderich,43.7501,-81.7165,16.17,16.62,14.95,94,83,3.6,CA,1663406567
aklavik,68.2191,-135.0107,2.77,2.77,2.77,95,56,3.56,CA,1663406567
rodrigues alves,-7.738,-72.6509,19.93,19.93,19.93,91,12,0.65,BR,1663406567
vikesa,58.6376,6.0913,10.54,11.6,10.06,73,72,9.0,NO,1663406567
souillac,-20.5167,57.5167,24.21,24.21,24.21,69,75,7.72,MU,1663406567
gambela,8.25,34.5833,28.29,28.29,28.29,67,36,1.17,ET,1663406567
pedernales,18.0384,-71.744,28.06,28.06,28.06,71,99,0.96,DO,1663406568
mount gambier,-37.8333,140.7667,10.95,10.95,10.95,82,40,8.23,AU,1663406568
yarega,63.4354,53.5765,12.8,12.8,12.8,68,100,4.04,RU,1663406568
praia,14.9215,-23.5087,26.3,26.3,26.3,83,75,5.66,CV,1663406568
kilindoni,-7.9139,39.6668,24.89,24.89,24.89,70,42,3.03,TZ,1663406569
asyut,27.181,31.1837,31.54,31.54,31.54,26,0,5.81,EG,1663406569
stromness,58.965,-3.296,12.15,12.15,9.98,81,100,6.71,GB,1663406569
lorengau,-2.0226,147.2712,27.74,27.74,27.74,73,52,3.4,PG,1663406570
moron,-34.6534,-58.6198,15.13,16.09,13.83,85,100,4.5,AR,1663406570
toora-khem,52.4675,96.11,8.02,8.02,8.02,75,100,1.22,RU,1663406570
mutsu,41.2894,141.2169,22.75,22.75,22.75,85,96,0.46,JP,1663406437
alice springs,-23.7,133.8833,22.75,22.75,22.75,21,0,3.09,AU,1663406407
yarada,17.65,83.2667,33.18,33.18,33.18,66,40,5.14,IN,1663406570
the hammocks,25.6715,-80.4445,25.94,28.89,25.0,96,20,0.89,US,1663406570
verkhnetulomskiy,68.6073,31.7962,11.07,11.07,10.07,92,100,3.04,RU,1663406570
jaque,7.5175,-78.1703,24.87,24.87,24.87,89,95,2.4,PA,1663406571
pryazha,61.6926,33.6216,9.58,10.57,9.58,92,99,2.58,RU,1663406571
killybegs,54.6333,-8.45,8.84,11.84,8.84,64,100,1.5,IE,1663406571
san martin,-33.081,-68.4681,13.3,13.3,13.3,37,100,4.18,AR,1663406571
salalah,17.0151,54.0924,30.05,30.05,30.05,74,20,6.17,OM,1663406571
avera,33.194,-82.5271,16.6,16.73,15.03,76,0,2.26,US,1663406571
zhezkazgan,47.8043,67.7144,20.99,20.99,20.99,17,0,7.0,KZ,1663406572
ribeira grande,38.5167,-28.7,23.22,23.22,23.22,83,20,1.03,PT,1663406572
mbanza-ngungu,-5.25,14.8667,26.38,26.38,26.38,56,82,3.25,CD,1663406572
sabang,5.8933,95.3214,28.27,28.27,28.27,76,43,11.01,ID,1663406572
coihaique,-45.5752,-72.0662,-3.03,-3.03,-3.66,93,0,1.03,CL,1663406572
huicungo,-7.2833,-76.8,19.33,19.33,19.33,99,47,0.62,PE,1663406572
paoua,7.2427,16.4406,23.84,23.84,23.84,86,99,2.27,CF,1663406572
tarauaca,-8.1614,-70.7656,20.33,20.33,20.33,89,29,0.6,BR,1663406572
puerto escondido,15.85,-97.0667,24.87,24.87,24.87,96,100,4.95,MX,1663406572
qorveh,35.1664,47.8045,27.01,27.01,27.01,12,0,3.7,IR,1663406573
amga,60.8953,131.9608,7.87,7.87,7.87,67,77,1.57,RU,1663406573
kasur,31.1156,74.4467,33.06,33.06,33.06,36,0,2.97,PK,1663406573
akyab,20.15,92.9,29.14,29.14,29.14,73,59,4.08,MM,1663406573
hit,33.6416,42.8251,38.13,38.13,38.13,12,0,6.45,IQ,1663406573
ginir,7.1333,40.7,23.24,23.24,23.24,41,51,4.23,ET,1663406574
coquimbo,-29.9533,-71.3436,11.85,11.85,11.85,87,100,1.03,CL,1663406574
copiapo,-27.3667,-70.3333,10.83,10.83,10.83,89,100,0.77,CL,1663406574
yeppoon,-23.1333,150.7333,20.88,20.88,20.88,91,71,3.24,AU,1663406574
najran,17.4924,44.1277,35.36,35.36,35.36,19,81,5.85,SA,1663406574
arcata,40.8665,-124.0828,12.44,13.44,11.53,87,100,1.54,US,1663406574
novoagansk,61.9449,76.6625,16.37,16.37,16.37,43,68,4.49,RU,1663406574
high level,58.5169,-117.136,13.06,13.06,13.06,94,100,4.12,CA,1663406575
ramona,33.0417,-116.8681,14.55,17.39,12.91,87,100,0.0,US,1663406575
vardo,70.3705,31.1107,8.99,8.99,8.99,87,100,12.86,NO,1663406575
khuzhir,53.1939,107.3397,13.15,13.15,13.15,47,45,5.14,RU,1663406575
concepcion del uruguay,-32.4825,-58.2372,14.43,14.43,12.92,85,100,2.24,AR,1663406575
tolbazy,54.0241,55.8825,14.82,14.82,14.82,94,100,6.32,RU,1663406575
saint anthony,45.0205,-93.218,18.61,19.61,17.15,90,20,3.6,US,1663406576
labuan,5.2767,115.2417,30.2,30.2,30.2,74,20,1.54,MY,1663406576
tuktoyaktuk,69.4541,-133.0374,3.72,3.72,3.72,88,100,4.0,CA,1663406576
te anau,-45.4167,167.7167,3.89,3.89,3.89,93,88,0.96,NZ,1663406417
natal,-5.795,-35.2094,23.12,23.12,21.36,88,20,2.06,BR,1663406577
pevek,69.7008,170.3133,0.86,0.86,0.86,97,100,9.41,RU,1663406577
baykit,61.67,96.37,11.2,11.2,11.2,48,25,3.34,RU,1663406577
lolodorf,3.2333,10.7333,23.95,23.95,23.95,89,98,1.35,CM,1663406577
muros,42.7762,-9.0603,19.91,20.05,19.91,76,100,1.64,ES,1663406307
tual,-5.6667,132.75,26.87,26.87,26.87,75,100,1.42,ID,1663406577
maidenhead,51.5228,-0.7199,12.39,14.35,9.69,59,10,2.57,GB,1663406578
kindu,-2.95,25.95,29.2,29.2,29.2,59,100,1.77,CD,1663406578
beterou,9.1992,2.2586,24.86,24.86,24.86,85,92,1.24,BJ,1663406579
bambous virieux,-20.3428,57.7575,24.14,24.56,24.14,69,75,7.72,MU,1663406579
necochea,-38.5473,-58.7368,12.62,12.62,12.62,84,100,7.32,AR,1663406580
presidencia roque saenz pena,-26.7852,-60.4388,14.44,14.44,14.44,45,10,4.81,AR,1663406580
nerchinskiy zavod,51.3088,119.61,12.26,12.26,12.26,79,90,4.18,RU,1663406580
acari,-15.4311,-74.6158,17.12,17.12,17.12,75,40,1.43,PE,1663406580
les escoumins,48.1111,-69.0236,6.64,6.64,6.64,88,0,2.54,CA,1663406580
komsomolskiy,40.4272,71.7189,29.4,29.4,29.4,18,2,2.06,UZ,1663406580
morondava,-20.2833,44.2833,26.72,26.72,26.72,59,0,4.73,MG,1663406327
flin flon,54.7682,-101.865,7.57,7.57,7.57,77,75,2.2,CA,1663406581
coahuayana,18.7333,-103.6833,23.52,23.52,23.52,96,100,1.85,MX,1663406581
luganville,-15.5333,167.1667,25.82,25.82,25.82,85,37,4.69,VU,1663406581
samarai,-10.6167,150.6667,28.04,28.04,28.04,80,65,5.63,PG,1663406581
saskylakh,71.9167,114.0833,1.31,1.31,1.31,98,100,8.15,RU,1663406581
kokopo,-4.352,152.2633,26.4,26.4,26.4,71,95,1.94,PG,1663406582
luan,46.3592,6.9759,7.1,9.35,4.79,73,59,3.13,CH,1663406582
selty,57.3132,52.1345,17.2,17.2,17.2,61,100,4.88,RU,1663406582
vestmannaeyjar,63.4427,-20.2734,7.55,7.55,7.55,93,40,2.57,IS,1663406582
dwarka,22.2394,68.9678,27.47,27.47,27.47,75,100,6.89,IN,1663406583
lompoc,34.6391,-120.4579,13.95,14.94,12.55,93,100,4.12,US,1663406583
taoudenni,22.6783,-3.9836,34.56,34.56,34.56,17,0,5.11,ML,1663406583
iquitos,-3.7481,-73.2472,19.02,19.02,19.02,100,75,1.03,PE,1663406583
makakilo city,21.3469,-158.0858,23.16,25.18,21.86,86,0,2.06,US,1663406583
sandakan,5.8402,118.1179,30.82,30.82,30.82,70,20,4.12,MY,1663406583
hvolsvollur,63.7533,-20.2243,7.37,7.37,7.37,82,98,1.46,IS,1663406584
gombe,10.2897,11.1673,21.98,21.98,21.98,88,100,3.22,NG,1663406316
waddan,29.1614,16.139,32.86,32.86,32.86,17,0,2.55,LY,1663406325
kinsale,51.7075,-8.5306,11.65,12.91,11.65,76,40,1.03,IE,1663406584
tabas,33.5959,56.9244,35.15,35.15,35.15,8,0,3.2,IR,1663406584
anlu,31.1661,112.5831,35.55,35.55,35.55,29,20,1.2,CN,1663406584
vila franca do campo,37.7167,-25.4333,22.89,23.23,22.89,88,39,3.04,PT,1663406585
nicoya,10.1483,-85.452,23.04,23.04,23.04,97,100,0.79,CR,1663406585
mitu,1.1983,-70.1733,20.79,20.79,20.79,99,100,0.86,CO,1663406585
katangli,51.7102,143.2326,9.52,9.52,9.52,78,100,3.96,RU,1663406585
west wendover,40.7391,-114.0733,15.56,15.56,15.56,59,75,4.12,US,1663406585
codajas,-3.8367,-62.0569,24.0,24.0,24.0,79,98,0.87,BR,1663406585
mayumba,-3.432,10.6554,24.27,24.27,24.27,81,99,2.51,GA,1663406585
xining,36.6167,101.7667,20.84,20.84,20.84,48,36,2.66,CN,1663406586
honjo,36.2333,139.1833,25.54,25.93,24.97,50,100,0.85,JP,1663406440
nantai,40.9241,122.8044,21.19,21.19,21.19,82,99,1.76,CN,1663406586
jablah,35.3614,35.9256,29.16,29.16,29.16,58,40,2.06,SY,1663406586
inirida,3.8653,-67.9239,21.84,21.84,21.84,99,99,0.6,CO,1663406586
mount isa,-20.7333,139.5,29.87,29.87,29.87,17,0,3.6,AU,1663406586
tramore,52.1624,-7.1524,11.91,13.38,8.99,68,0,3.09,IE,1663406587
zhicheng,30.2956,111.5047,35.03,35.03,35.03,34,17,1.46,CN,1663406587
college,64.8569,-147.8028,9.78,11.0,8.32,77,100,2.57,US,1663406587
gibraleon,37.3763,-6.969,23.34,23.34,23.34,61,7,2.57,ES,1663406587
ilulissat,69.2167,-51.1,3.01,3.01,3.01,87,75,4.12,GL,1663406587
oktyabrskoye,43.0645,44.7417,32.08,32.08,32.08,24,66,2.0,RU,1663406587
east london,-33.0153,27.9116,16.52,16.52,16.52,88,40,1.54,ZA,1663406587
minab,27.1467,57.0801,36.2,36.2,36.2,43,0,4.94,IR,1663406588
storforshei,66.4043,14.5233,9.88,10.37,9.87,87,75,1.03,NO,1663406588
krasnokamensk,50.0979,118.0369,6.76,6.76,6.76,82,98,8.19,RU,1663406588
batamshinskiy,50.5594,58.2747,17.2,17.2,17.2,69,98,3.68,KZ,1663406324
geraldton,-28.7667,114.6,19.23,19.23,19.23,68,0,4.63,AU,1663406588
orneta,54.1148,20.1333,15.71,15.71,15.71,59,74,6.39,PL,1663406588
san quintin,30.4833,-115.95,19.26,19.26,19.26,85,39,3.3,MX,1663406589
valdivia,-39.8142,-73.2459,3.05,3.05,3.05,99,89,0.79,CL,1663406589
moerai,-22.4333,-151.3333,22.8,22.8,22.8,71,63,8.94,PF,1663406589
bani walid,31.7566,13.9942,31.62,31.62,31.62,27,0,1.94,LY,1663406325
boguchany,58.3814,97.4531,12.41,12.41,12.41,67,71,2.93,RU,1663406590
vila velha,-20.3297,-40.2925,16.64,16.97,16.64,95,100,4.63,BR,1663406590
korla,41.7597,86.1469,28.47,28.47,28.47,13,11,1.36,CN,1663406590
bowen,-20.0167,148.2333,23.24,23.24,23.24,90,0,2.07,AU,1663406590
esfarayen,37.0765,57.5101,24.81,24.81,24.81,22,0,2.68,IR,1663406590
le vauclin,14.5452,-60.8388,26.03,29.36,26.03,94,100,1.54,MQ,1663406590
popondetta,-8.7537,148.2534,23.66,23.66,23.66,93,90,1.0,PG,1663406334
bud,39.447,-86.1758,16.83,18.41,14.86,95,98,2.06,US,1663406590
ulladulla,-35.35,150.4667,14.5,14.5,12.09,58,0,7.55,AU,1663406058
mocuba,-16.8392,36.9856,32.36,32.36,32.36,24,0,2.92,MZ,1663406591
shubarkuduk,49.1447,56.4872,21.14,21.14,21.14,47,96,4.84,KZ,1663406591
labuhan,-6.8844,112.2051,29.69,29.69,29.69,61,100,4.93,ID,1663406591
khasan,42.4308,130.6434,20.32,20.32,20.32,95,78,1.71,RU,1663406591
port hedland,-20.3167,118.5667,29.03,29.03,29.03,30,37,5.66,AU,1663406053
youghal,51.95,-7.8506,12.14,12.83,11.56,73,45,1.64,IE,1663406592
warwick,41.7001,-71.4162,9.77,12.73,6.22,83,0,3.09,US,1663406592
mokolo,10.7398,13.8019,19.9,19.9,19.9,93,100,1.3,CM,1663406592
abu kamal,34.4506,40.9171,36.19,36.19,36.19,17,0,4.95,SY,1663406592
athabasca,54.7169,-113.2854,11.23,11.23,11.23,92,26,1.74,CA,1663406592
prince rupert,54.3161,-130.3201,9.13,10.83,8.05,96,0,2.06,CA,1663406592
wasilla,61.5814,-149.4394,10.31,12.81,8.99,76,100,6.69,US,1663406593
lafia,8.4833,8.5167,23.17,23.17,23.17,95,100,2.41,NG,1663406317
sorland,67.667,12.6934,11.92,11.92,11.92,77,99,4.86,NO,1663406593
pangoa,-12.1167,-73.0,17.54,17.54,17.54,98,14,1.28,PE,1663406593
kalmunai,7.4167,81.8167,29.79,29.79,29.79,64,1,6.55,LK,1663406594
dingle,10.9995,122.6711,27.24,27.24,27.24,82,87,5.05,PH,1663406594
tyrma,50.0833,132.1667,15.35,15.35,15.35,81,95,3.58,RU,1663406594
viedma,-40.8135,-62.9967,9.26,9.26,9.26,94,100,3.75,AR,1663406585
beyneu,45.3167,55.2,25.44,25.44,25.44,26,100,4.68,KZ,1663406594
zachary,30.6485,-91.1565,21.08,22.08,19.84,97,0,1.54,US,1663406594
teguldet,57.3064,88.1667,14.29,14.29,14.29,50,37,1.49,RU,1663406594
cassilandia,-19.1133,-51.7342,17.87,17.87,17.87,64,89,4.03,BR,1663406594
klaksvik,62.2266,-6.589,10.51,10.51,10.51,74,99,2.21,FO,1663406595
mitzic,0.7821,11.549,22.72,22.72,22.72,88,100,1.67,GA,1663406595
balakhta,55.38,91.6,12.29,12.29,12.29,46,97,3.36,RU,1663406595
bolshevik,54.0065,27.5692,13.79,13.79,13.68,57,97,7.02,BY,1663406595
pionerskiy,54.9508,20.2275,12.64,12.64,10.91,81,74,8.23,RU,1663406595
alyangula,-13.8483,136.4192,26.45,26.45,26.45,75,22,3.61,AU,1663406596
royan,45.6285,-1.0281,14.88,16.01,14.88,50,1,5.31,FR,1663406596
saint-georges,12.0564,-61.7485,29.82,29.82,29.82,79,75,8.23,GD,1663406596
saint albans,51.75,-0.3333,12.52,13.91,10.64,58,4,7.72,GB,1663406596
hofn,64.2539,-15.2082,8.88,8.88,8.88,64,93,1.54,IS,1663406596
manzhouli,49.6,117.4333,5.5,5.5,5.5,82,100,10.8,CN,1663406596
snasa,64.2457,12.3778,10.67,10.67,10.67,87,100,1.77,NO,1663406596
neyshabur,36.2133,58.7958,26.32,26.32,26.32,26,0,1.57,IR,1663406597
ostrovnoy,68.0531,39.5131,10.46,10.46,10.46,92,100,5.76,RU,1663406597
rocha,-34.4833,-54.3333,10.17,10.17,10.17,94,100,4.02,UY,1663406597
iquique,-20.2208,-70.1431,13.02,13.02,13.02,68,0,1.83,CL,1663406597
saint-denis,48.9167,2.3333,14.04,14.77,13.41,65,0,6.17,FR,1663406597
erenhot,43.6475,111.9767,17.48,17.48,17.48,25,0,7.91,CN,1663406597
thinadhoo,0.5333,72.9333,27.85,27.85,27.85,67,72,2.14,MV,1663406597
fort smith,35.3859,-94.3986,19.59,20.75,18.18,80,0,2.57,US,1663406598
san cristobal,7.7669,-72.225,17.81,17.81,17.81,86,74,0.72,VE,1663406598
yar-sale,66.8333,70.8333,13.45,13.45,13.45,55,100,5.78,RU,1663406598
santa marta,11.2408,-74.199,27.72,27.72,27.72,80,100,0.89,CO,1663406598
codrington,-38.2667,141.9667,10.19,10.19,10.19,85,22,9.62,AU,1663406598
collie,-33.3667,116.15,15.11,15.11,15.11,71,83,2.88,AU,1663406598
shetpe,44.1667,52.1167,27.53,27.53,27.53,24,69,6.75,KZ,1663406598
aykhal,66.0,111.5,-1.0,-1.0,-1.0,81,100,10.57,RU,1663406599
pong,19.1493,100.2752,28.87,28.87,28.87,79,65,1.64,TH,1663406599
brewster,41.3973,-73.6171,14.04,16.82,11.35,86,100,0.0,US,1663406599
tazovskiy,67.4667,78.7,8.57,8.57,8.57,90,100,3.91,RU,1663406599
sao mateus,-18.7161,-39.8589,19.38,19.38,19.38,89,100,4.61,BR,1663406599
hanyang,32.1371,105.5126,19.91,19.91,19.91,89,100,1.84,CN,1663406599
montauban,44.0833,1.5,17.63,17.63,17.63,39,0,4.07,FR,1663406599
westport,41.1415,-73.3579,15.04,18.19,12.43,79,40,3.6,US,1663406600
byron bay,-28.65,153.6167,22.98,22.98,22.98,56,1,3.54,AU,1663406434
lavrentiya,65.5833,-171.0,6.42,6.42,6.42,97,100,13.19,RU,1663406600
vadamadurai,10.4667,78.0833,34.64,34.64,34.64,37,91,2.12,IN,1663406600
kichmengskiy gorodok,59.9816,45.7854,10.27,10.27,10.27,96,100,3.97,RU,1663406600
conde,-7.2597,-34.9075,20.7,20.7,20.7,94,20,3.09,BR,1663406600
karratha,-20.7377,116.8463,26.9,26.9,26.9,32,41,5.04,AU,1663406600
sayansk,54.1088,102.1648,11.52,11.52,11.52,44,95,3.01,RU,1663406601
kavaratti,10.5669,72.642,27.39,27.39,27.39,77,56,5.64,IN,1663406601
humenne,48.9371,21.9163,16.1,18.08,15.03,74,100,0.85,SK,1663406601
leh,34.1667,77.5833,18.29,18.29,18.29,18,37,3.9,IN,1663406601
maceio,-9.6658,-35.7353,19.69,19.69,19.69,94,20,1.54,BR,1663406601
san vicente,-26.6167,-54.1333,9.67,9.67,9.67,87,4,1.85,AR,1663406601
moose factory,51.2585,-80.6094,5.99,5.99,4.0,87,0,2.06,CA,1663406602
williston,48.147,-103.618,8.01,9.62,7.8,94,37,1.87,US,1663406602
aksarka,66.5606,67.7975,13.92,13.92,13.92,52,100,5.89,RU,1663406602
mitchell,43.7094,-98.0298,16.41,17.08,15.99,89,0,2.06,US,1663406602
oranjemund,-28.55,16.4333,16.29,16.29,16.29,70,42,6.43,NA,1663406602
maniitsoq,65.4167,-52.9,8.06,8.06,8.06,81,100,2.36,GL,1663406602
trincomalee,8.5711,81.2335,30.82,30.82,30.82,62,69,4.68,LK,1663406603
bereda,43.2686,-7.5406,17.3,17.3,16.99,99,100,2.21,ES,1663406603
gidole,5.65,37.3667,22.86,22.86,22.86,37,26,2.23,ET,1663406603
taloda,21.5667,74.2167,30.52,30.52,30.52,65,67,4.24,IN,1663406604
aden,12.7794,45.0367,32.54,32.54,32.54,61,73,3.38,YE,1663406604
alvand,36.3187,49.1678,23.74,23.74,23.74,22,0,3.86,IR,1663406604
pringsewu,-5.3582,104.9744,28.59,28.59,28.59,74,79,1.71,ID,1663406604
srednekolymsk,67.45,153.6833,2.96,2.96,2.96,66,100,2.75,RU,1663406604
kungurtug,50.5994,97.5228,8.61,8.61,8.61,67,99,1.99,RU,1663406604
tianpeng,30.9866,103.9393,22.26,22.26,22.26,83,100,1.23,CN,1663406604
catemaco,18.4167,-95.1167,21.76,21.76,21.76,97,100,0.2,MX,1663406605
smithers,54.7804,-127.1743,3.18,3.18,3.18,93,100,1.03,CA,1663406605
kipushi,-11.7667,27.2333,27.78,27.78,27.78,25,91,2.95,CD,1663406605
doka,13.5167,35.7667,26.26,26.26,26.26,77,74,4.19,SD,1663406343
quballat,36.5418,9.6633,28.05,28.05,28.05,50,65,3.46,TN,1663406605
inuvik,68.3499,-133.7218,4.48,4.48,4.42,100,100,1.54,CA,1663406441
gravdal,68.1214,13.5031,11.94,11.94,11.94,76,40,4.63,NO,1663406605
lasa,46.6166,10.7002,11.21,11.49,10.38,64,88,4.46,IT,1663406606
elwood,-37.8817,144.983,11.8,12.87,10.27,76,90,4.02,AU,1663406606
talnakh,69.4865,88.3972,4.56,4.56,4.56,63,100,3.58,RU,1663406606
balkanabat,39.5108,54.3671,30.94,30.94,30.94,22,6,2.77,TM,1663406606
cherdyn,60.403,56.4787,15.24,15.24,15.24,57,59,4.35,RU,1663406606
ovruch,51.3246,28.8035,13.32,13.32,13.32,79,100,3.24,UA,1663406607
doha,25.2867,51.5333,39.97,39.99,39.17,21,0,6.69,QA,1663406311
montepuez,-13.1256,38.9997,29.01,29.01,29.01,26,20,4.53,MZ,1663406328
shellbrook,53.2168,-106.4011,4.57,4.57,4.57,67,96,2.86,CA,1663406608
belaya gora,68.5333,146.4167,3.34,3.34,3.34,62,13,2.75,RU,1663406608
santa lucia,27.9117,-15.5407,21.61,21.62,20.98,61,20,7.72,ES,1663406608
jeremie,18.65,-74.1167,27.31,27.31,27.31,76,3,0.31,HT,1663406609
pauini,-7.7136,-66.9764,21.48,21.48,21.48,71,21,1.22,BR,1663406609
kabale,-1.2486,29.9899,23.0,23.0,23.0,49,50,2.84,UG,1663406609
lagunas,-5.2269,-75.6753,19.85,19.85,19.85,92,38,0.66,PE,1663406609
saint-ambroise,48.5501,-71.3324,3.99,4.21,0.3,93,5,1.05,CA,1663406609
sucua,-2.4667,-78.1667,19.1,19.1,19.1,88,100,0.89,EC,1663406609
dali,25.7,100.1833,22.68,22.68,22.68,73,46,1.45,CN,1663406610
pisco,-13.7,-76.2167,15.03,15.03,15.03,88,100,2.06,PE,1663406610
husavik,66.0449,-17.3389,5.42,5.42,5.42,84,100,1.65,IS,1663406610
raga,8.4596,25.678,23.71,23.71,23.71,83,100,2.14,SS,1663406610
sibolga,1.7427,98.7792,27.0,27.0,27.0,82,94,1.5,ID,1663406610
svobodnyy,51.4,128.1333,15.73,15.73,15.73,78,100,3.11,RU,1663406610
maragogi,-9.0122,-35.2225,22.15,22.15,22.15,81,19,1.29,BR,1663406610
chitral,35.8462,71.7858,27.08,27.08,27.08,26,1,3.67,PK,1663406611
haines junction,60.7522,-137.5108,-3.03,-3.03,-3.03,93,10,1.03,CA,1663406611
kaele,10.1092,14.4508,29.31,29.31,29.31,94,100,2.06,CM,1663406611
sao filipe,14.8961,-24.4956,25.58,25.58,25.58,81,17,4.12,CV,1663406611
mecca,21.4267,39.8261,38.78,38.78,38.78,29,17,5.97,SA,1663406611
whitehorse,60.7161,-135.0538,3.18,4.89,2.95,69,0,1.54,CA,1663406612
tawau,4.2498,117.8871,30.07,30.07,30.07,72,70,3.31,MY,1663406349
klos,41.5072,20.0851,19.53,19.53,19.53,74,94,4.26,AL,1663406612
atasu,48.6814,71.6433,18.19,18.19,18.19,18,67,4.32,KZ,1663406612
ixtapa,20.7,-105.2,25.13,25.13,25.13,93,100,1.13,MX,1663406612
colwyn bay,53.2948,-3.7267,14.61,14.86,11.23,66,94,2.24,GB,1663406612
fukue,32.6881,128.8419,27.2,27.2,27.2,78,75,5.14,JP,1663406537
svetlogorsk,52.6333,29.7333,16.39,16.39,16.39,50,56,5.26,BY,1663406612
nyurba,63.2842,118.3319,4.34,4.34,4.34,67,98,3.92,RU,1663406613
cap malheureux,-19.9842,57.6142,24.7,24.7,24.7,64,0,4.47,MU,1663406613
martaban,16.5314,97.6111,27.9,27.9,27.9,79,69,5.55,MM,1663406613
katsuura,35.1333,140.3,26.24,26.24,26.24,82,100,4.62,JP,1663406613
itoman,26.1247,127.6694,29.08,29.43,29.01,84,75,13.89,JP,1663406509
merauke,-8.4667,140.3333,26.47,26.47,26.47,85,97,5.71,ID,1663406613
lokosovo,61.1333,74.8167,15.76,15.76,15.76,45,99,4.19,RU,1663406613
semey,50.4111,80.2275,20.12,20.12,20.12,22,0,3.0,KZ,1663406614
baldone,56.7428,24.3944,14.84,14.86,14.21,80,84,4.63,LV,1663406614
demba,-5.51,22.2667,27.78,27.78,27.78,63,100,1.46,CD,1663406614
chapais,49.7834,-74.8492,1.88,1.88,1.88,85,0,1.71,CA,1663406614
lekoni,-1.5843,14.2591,26.42,26.42,26.42,67,95,2.96,GA,1663406614
oban,56.4127,-5.4706,11.95,12.43,11.95,71,75,6.69,GB,1663406615
nabire,-3.3667,135.4833,23.13,23.13,23.13,95,100,1.39,ID,1663406615
umm kaddadah,13.6017,26.6876,25.46,25.46,25.46,60,100,2.65,SD,1663406615
saint-leu,-21.15,55.2833,24.57,25.46,24.48,66,5,1.91,RE,1663406615
kahului,20.8947,-156.47,24.01,25.47,24.01,69,0,1.54,US,1663406615
hokitika,-42.7167,170.9667,9.57,9.57,9.57,71,100,1.01,NZ,1663406616
esqueda,30.7167,-109.5833,21.25,21.25,21.25,44,2,0.43,MX,1663406617
opuwo,-18.0607,13.84,29.15,29.15,29.15,13,0,4.19,NA,1663406617
tieling,42.2931,123.8414,21.21,21.21,21.21,80,62,2.61,CN,1663406617
plettenberg bay,-34.0527,23.3716,17.38,17.38,17.38,69,51,2.82,ZA,1663406617
maarianhamina,60.0973,19.9348,12.92,12.92,12.92,82,20,3.6,AX,1663406357
grand forks,47.9417,-97.4337,11.96,12.85,11.96,100,100,2.57,US,1663406618
kawalu,-7.3817,108.2082,25.71,25.71,25.71,80,99,2.56,ID,1663406618
honiara,-9.4333,159.95,26.09,26.09,26.09,86,49,1.35,SB,1663406618
morwell,-38.2333,146.4,10.22,10.22,10.22,95,100,3.38,AU,1663406618
bol,13.4586,14.7147,25.71,25.71,25.71,79,100,8.42,TD,1663406618
bamenda,5.9527,10.1582,21.41,21.41,21.41,78,99,1.51,CM,1663406619
askino,56.0901,56.5783,13.16,13.16,13.16,86,100,4.73,RU,1663406619
opelousas,30.5335,-92.0815,21.95,22.71,19.94,95,0,2.03,US,1663406619
san ramon,37.7799,-121.978,13.06,15.12,10.82,86,0,3.09,US,1663406619
kuandian,40.7286,124.7847,21.22,21.22,21.22,86,86,1.24,CN,1663406619
rapid valley,44.0625,-103.1463,13.16,13.97,12.0,90,0,5.66,US,1663406620
savannah bight,16.45,-85.85,28.16,28.16,28.16,79,66,8.36,HN,1663406620
madang,-5.2246,145.7966,26.11,26.11,26.11,80,61,1.53,PG,1663406620
tilichiki,60.4667,166.1,3.46,3.46,3.46,74,43,4.04,RU,1663406620
villazon,-22.0866,-65.5942,1.36,1.36,1.36,39,0,1.38,BO,1663406620
sabya,17.1495,42.6254,37.79,37.79,37.79,44,17,5.24,SA,1663406620
cururupu,-1.8283,-44.8683,25.1,25.1,25.1,80,85,2.68,BR,1663406621
santiago de chuco,-8.15,-78.1833,8.41,8.41,8.41,90,40,0.46,PE,1663406621
pomorie,42.5588,27.6439,29.24,29.24,29.24,54,0,4.12,BG,1663406621
mareeba,-17.0,145.4333,24.1,24.13,21.4,80,0,2.21,AU,1663406127
biltine,14.5333,20.9167,30.0,30.0,30.0,53,82,3.87,TD,1663406621
concordia,-31.393,-58.0209,13.77,13.77,13.77,89,56,3.13,AR,1663406621
katobu,-4.9408,122.5276,27.28,27.28,27.28,71,100,1.91,ID,1663406621
sal rei,16.1833,-22.9167,27.11,27.11,27.11,74,40,7.2,CV,1663406621
wote,-1.7808,37.6288,21.3,21.3,21.3,62,98,2.25,KE,1663406622
diapaga,12.0708,1.7889,25.87,25.87,25.87,79,59,4.02,BF,1663406622
ola,59.5833,151.2833,7.86,7.86,7.86,53,2,2.14,RU,1663406622
pamanukan,-6.2842,107.8106,30.41,30.41,30.41,58,93,4.38,ID,1663406622
qarchak,35.4394,51.5689,31.23,32.17,31.21,20,0,1.78,IR,1663406622
saint-pierre,-21.3393,55.4781,24.82,25.1,24.82,65,0,14.92,RE,1663406622
kumba,4.6363,9.4469,26.26,26.26,26.26,80,97,1.05,CM,1663406623
cairns,-16.9167,145.7667,24.5,26.7,23.97,84,3,0.0,AU,1663406415
dubuque,42.4833,-90.8668,20.61,21.04,20.25,76,100,3.09,US,1663406623
klyuchi,52.2667,79.1667,17.82,17.82,17.82,24,1,5.59,RU,1663406623
shu,43.5983,73.7614,28.42,28.42,28.42,12,6,4.68,KZ,1663406623
palana,59.1167,159.9667,4.02,4.02,4.02,62,23,4.39,RU,1663406624
hami,42.8,93.45,28.13,28.13,28.13,11,0,3.43,CN,1663406624
shimoda,34.6667,138.95,25.61,25.61,25.61,86,100,5.83,JP,1663406624
uncia,-18.467,-66.5685,4.51,4.51,4.51,21,0,2.03,BO,1663406624
torgau,51.5667,13.0,12.11,13.49,11.97,63,95,8.68,DE,1663406624
soyo,-6.1349,12.3689,24.48,24.48,24.48,78,86,3.65,AO,1663406624
mafinga,-7.25,35.0667,28.29,28.29,28.29,32,43,2.63,TZ,1663406625
mackay,-21.15,149.2,23.16,23.16,23.16,93,68,2.77,AU,1663406625
adre,13.4667,22.2,25.91,25.91,25.91,60,92,4.32,TD,1663406625
la ronge,55.1001,-105.2842,11.14,11.14,10.12,71,40,2.06,CA,1663406625
xai-xai,-25.0519,33.6442,31.33,31.33,31.33,30,0,4.27,MZ,1663406625
soller,39.7662,2.7152,25.42,26.03,24.64,69,47,1.79,ES,1663406625
isla mujeres,21.2311,-86.731,23.03,23.03,23.03,83,100,4.57,MX,1663406626
meulaboh,4.1363,96.1285,28.79,28.79,28.79,66,34,3.16,ID,1663406626
riyadh,24.6877,46.7219,37.08,37.08,37.08,12,1,0.79,SA,1663406111
maturin,9.75,-63.1767,22.96,22.96,22.96,93,100,0.29,VE,1663406627
svidnik,49.3082,21.5703,14.46,16.61,14.46,57,100,1.17,SK,1663406627
dongli,23.5656,116.8194,31.99,31.99,31.99,66,0,4.0,CN,1663406627
ahipara,-35.1667,173.1667,10.15,10.15,10.15,70,100,1.09,NZ,1663406627
thunder bay,48.4001,-89.3168,13.95,13.95,13.95,100,100,2.06,CA,1663406627
vanderhoof,54.0166,-124.0198,4.13,4.13,4.13,73,36,1.34,CA,1663406627
san javier,37.8063,-0.8374,26.81,28.32,25.27,65,20,3.13,ES,1663406627
haukipudas,65.1765,25.3523,10.64,10.64,10.03,89,100,5.23,FI,1663406627
